[
  {
    "id": "08e5ed36-5840-40f3-809d-05996ebda2f0",
    "name": "tehran hospital - بیمارستان تهران",
    "description": "PC99+4RF District 6, Tehran, Iran",
    "location": {
      "lat": 35.7178153,
      "lng": 51.419556299999996
    },
    "category": "medical",
    "trustLevel": "high",
    "lastUpdated": "2025-06-21T14:48:55.277078",
    "addedBy": "system",
    "isVerified": false,
    "visible": true,
    "radius": 100
  },
  {
    "id": "f111edfd-db31-47b4-87aa-80dbc2f25590",
    "name": "Atieh Hospital",
    "description": "Tehran, West Shahrak Qods (West),Shahid Dadman Intersection, Farahzadi Blvd, 6564-14151, Iran",
    "location": {
      "lat": 35.7654083,
      "lng": 51.3616007
    },
    "category": "medical",
    "trustLevel": "high",
    "lastUpdated": "2025-06-21T14:48:55.277078",
    "addedBy": "system",
    "isVerified": false,
    "visible": true,
    "radius": 100
  },
  {
    "id": "1b307150-f255-40ec-ba2e-7dd8e8c1822b",
    "name": "Arman Hospital",
    "description": "Tehran Province, Tehran, District 3, Seoul St, Q9CW+GH3, Iran",
    "location": {
      "lat": 35.7712516,
      "lng": 51.396423999999996
    },
    "category": "medical",
    "trustLevel": "high",
    "lastUpdated": "2025-06-21T14:48:55.277078",
    "addedBy": "system",
    "isVerified": false,
    "visible": true,
    "radius": 100
  },
  {
    "id": "5efb362f-ddf5-4f97-ada6-b60080352075",
    "name": "Milad Hospital",
    "description": "Tehran, استان تهران تهران اتوبان همت خروجی اختصاصی برج و بیمارستان میلاد، P9WJ+6HH, Iran",
    "location": {
      "lat": 35.745565,
      "lng": 51.3814979
    },
    "category": "medical",
    "trustLevel": "high",
    "lastUpdated": "2025-06-21T14:48:55.277078",
    "addedBy": "system",
    "isVerified": false,
    "visible": true,
    "radius": 100
  },
  {
    "id": "5d647ce9-431f-4c6f-9b03-dadd4e3ef404",
    "name": "Iranmehr Hospital",
    "description": "Tehran, استان تهران تهران خیابان شریعتی، دو راهی، QC8R+XVJ, Iran",
    "location": {
      "lat": 35.767466,
      "lng": 51.4421292
    },
    "category": "medical",
    "trustLevel": "high",
    "lastUpdated": "2025-06-21T14:48:55.277078",
    "addedBy": "system",
    "isVerified": false,
    "visible": true,
    "radius": 100
  },
  {
    "id": "414022cc-6cc2-42e7-b111-ec7ada571d89",
    "name": "Laleh Hospital",
    "description": "Tehran, Tehran Sima-ye-Iran Street Phase 5، Iran",
    "location": {
      "lat": 35.752695599999996,
      "lng": 51.3602887
    },
    "category": "medical",
    "trustLevel": "high",
    "lastUpdated": "2025-06-21T14:48:55.277078",
    "addedBy": "system",
    "isVerified": false,
    "visible": true,
    "radius": 100
  },
  {
    "id": "baa1e7a9-6273-449d-bfdc-893a48191e35",
    "name": "Iranshahr Hospital",
    "description": "Tehran Province, Tehran, District 7, تهران - خيابان شريعتي نرسيده به سه راه طالقاني خيابان جواد كارگر بيمارستان ايرانشهر، خیابان شهید جواد کارگر، PC5M+M66, Iran",
    "location": {
      "lat": 35.7091695,
      "lng": 51.4330309
    },
    "category": "medical",
    "trustLevel": "high",
    "lastUpdated": "2025-06-21T14:48:55.277078",
    "addedBy": "system",
    "isVerified": false,
    "visible": true,
    "radius": 100
  },
  {
    "id": "03d32f82-c1c3-4bab-8113-71843e95d70e",
    "name": "Imam Khomeini Hospital",
    "description": "Tehran, استان تهران تهران انتهای بلوار کشاورز, 14197 33141, Iran",
    "location": {
      "lat": 35.708003399999996,
      "lng": 51.3806272
    },
    "category": "medical",
    "trustLevel": "high",
    "lastUpdated": "2025-06-21T14:48:55.277078",
    "addedBy": "system",
    "isVerified": false,
    "visible": true,
    "radius": 100
  },
  {
    "id": "db57a264-0560-4081-a118-2ec04dd77119",
    "name": "Mehr Hospital",
    "description": "Tehran Province, Tehran, District 6, W Zartosht St, PC82+8VJ, Iran",
    "location": {
      "lat": 35.715826899999996,
      "lng": 51.402140599999996
    },
    "category": "medical",
    "trustLevel": "high",
    "lastUpdated": "2025-06-21T14:48:55.277078",
    "addedBy": "system",
    "isVerified": false,
    "visible": true,
    "radius": 100
  },
  {
    "id": "e0819794-b3b6-4eab-bd68-a7b72701820c",
    "name": "Sina Hospital",
    "description": "Tehran, استان تهران تهران خیابان امام خمینی(ره)- نرسیده به میدان حسن آباد، 11367 46911, Iran",
    "location": {
      "lat": 35.68763,
      "lng": 51.41375250000001
    },
    "category": "medical",
    "trustLevel": "high",
    "lastUpdated": "2025-06-21T14:48:55.277078",
    "addedBy": "system",
    "isVerified": false,
    "visible": true,
    "radius": 100
  },
  {
    "id": "ee3282d2-9717-423f-b00a-72844b3b9ea5",
    "name": "Tehran Clinic Hospital",
    "description": "Tehran Province, Tehran, قائم مقام فراهانی، PCG9+87H, Iran",
    "location": {
      "lat": 35.7258201,
      "lng": 51.4182452
    },
    "category": "medical",
    "trustLevel": "high",
    "lastUpdated": "2025-06-21T14:48:55.277078",
    "addedBy": "system",
    "isVerified": false,
    "visible": true,
    "radius": 100
  },
  {
    "id": "daa5f1eb-a90e-4678-ac9b-1a083497d460",
    "name": "Jam Hospital",
    "description": "Tehran Province, Tehran, Fajr St, PCFF+56J, Iran",
    "location": {
      "lat": 35.722960400000005,
      "lng": 51.423002
    },
    "category": "medical",
    "trustLevel": "high",
    "lastUpdated": "2025-06-21T14:48:55.277078",
    "addedBy": "system",
    "isVerified": false,
    "visible": true,
    "radius": 100
  },
  {
    "id": "d596de9a-92ef-4225-8da6-89d232d0cb0e",
    "name": "Shariati Hospital",
    "description": "Tehran Province, Tehran, N Kargar, P9CP+JP2, Iran",
    "location": {
      "lat": 35.721513099999996,
      "lng": 51.3867658
    },
    "category": "medical",
    "trustLevel": "high",
    "lastUpdated": "2025-06-21T14:48:55.277078",
    "addedBy": "system",
    "isVerified": false,
    "visible": true,
    "radius": 100
  },
  {
    "id": "f73d0efe-c1b9-473a-90ec-785c5054f39f",
    "name": "Torfeh Hospital",
    "description": "Tehran, استان تهران Tehran خیابان مصطفی خمینی، مقابل سازمان تبلیغات اسلامی، 11498 47514, Iran",
    "location": {
      "lat": 35.695612499999996,
      "lng": 51.4348346
    },
    "category": "medical",
    "trustLevel": "high",
    "lastUpdated": "2025-06-21T14:48:55.277078",
    "addedBy": "system",
    "isVerified": false,
    "visible": true,
    "radius": 100
  },
  {
    "id": "3f8b3f57-bcda-4a47-b73d-798832f0a2d9",
    "name": "Khatam Al-Anbiya Hospital",
    "description": "Tehran Province, Tehran, Rashid Yasemi Street، Upper than Mirdamad St.، Vali- Asr St.، QC95+J5G, Iran",
    "location": {
      "lat": 35.7690536,
      "lng": 51.4079613
    },
    "category": "medical",
    "trustLevel": "high",
    "lastUpdated": "2025-06-21T14:48:55.277078",
    "addedBy": "system",
    "isVerified": false,
    "visible": true,
    "radius": 100
  },
  {
    "id": "a3101005-57e6-4f65-b711-0e9ae609a235",
    "name": "Apadana Hospital",
    "description": "Tehran Province, Tehran, District 6, St No. 172, Qarani, PC69+Q94, Iran",
    "location": {
      "lat": 35.7118447,
      "lng": 51.4184507
    },
    "category": "medical",
    "trustLevel": "high",
    "lastUpdated": "2025-06-21T14:48:55.277078",
    "addedBy": "system",
    "isVerified": false,
    "visible": true,
    "radius": 100
  },
  {
    "id": "d9f73299-069c-4f16-b764-de321d8321da",
    "name": "Bahman Hospital",
    "description": "Tehran, استان تهران شهرک غرب،، Iran Zamin Blvd, Q98J+878, Iran",
    "location": {
      "lat": 35.7657834,
      "lng": 51.3806896
    },
    "category": "medical",
    "trustLevel": "high",
    "lastUpdated": "2025-06-21T14:48:55.277078",
    "addedBy": "system",
    "isVerified": false,
    "visible": true,
    "radius": 100
  },
  {
    "id": "23036523-d491-49eb-ba98-a32be5885393",
    "name": "Shahram Hospital",
    "description": "Tehran, Chehel Sotoun St, PCC4+7J6, Iran",
    "location": {
      "lat": 35.7206573,
      "lng": 51.4065148
    },
    "category": "medical",
    "trustLevel": "high",
    "lastUpdated": "2025-06-21T14:48:55.277078",
    "addedBy": "system",
    "isVerified": false,
    "visible": true,
    "radius": 100
  },
  {
    "id": "2c68128c-f949-4dc7-8292-ee32de57924b",
    "name": "Day General Hospital",
    "description": "Tehran, وليعصر، Tavanir St, No. نبش, Iran",
    "location": {
      "lat": 35.747894599999995,
      "lng": 51.411574599999994
    },
    "category": "medical",
    "trustLevel": "high",
    "lastUpdated": "2025-06-21T14:48:55.277078",
    "addedBy": "system",
    "isVerified": false,
    "visible": true,
    "radius": 100
  },
  {
    "id": "c1b64a63-5fec-47dc-b668-48d5af7c478c",
    "name": "Bazarganan Hospital",
    "description": "Tehran, Tehran Province Tehran District 12 انتهای اتوبان محلاتی، نبش خیابان ری, Mahallati Hwy, Iran",
    "location": {
      "lat": 35.6750717,
      "lng": 51.4391306
    },
    "category": "medical",
    "trustLevel": "high",
    "lastUpdated": "2025-06-21T14:48:55.277078",
    "addedBy": "system",
    "isVerified": false,
    "visible": true,
    "radius": 100
  }
]
